#4,$GNGGA,120214.80,3133.2174116,S,14833.4139190,E,4,12,0.80,264.444,M,24.110,M,0.8,0000*77
#2,$GNGGA,120214.80,3133.2178635,S,14833.4124386,E,4,12,0.80,264.496,M,24.110,M,0.8,0000*7B
#3,$GNGGA,120214.80,3133.2197835,S,14833.4101987,E,4,12,0.80,264.393,M,24.110,M,0.8,0000*7A
#1,$GNGGA,120214.80,3133.2186882,S,14833.4111310,E,4,12,0.80,264.469,M,24.110,M,0.8,0000*71
#4,$GNGGA,120214.90,3133.2172859,S,14833.4138108,E,4,12,0.77,264.440,M,24.110,M,0.9,0000*7F
#2,$GNGGA,120214.90,3133.2177388,S,14833.4123311,E,4,12,0.77,264.499,M,24.110,M,0.9,0000*79
#3,$GNGGA,120214.90,3133.2196564,S,14833.4100883,E,4,12,0.77,264.391,M,24.110,M,0.9,0000*7C
#1,$GNGGA,120214.90,3133.2185617,S,14833.4110205,E,4,12,0.77,264.474,M,24.110,M,0.9,0000*70
#4,$GNGGA,120215.00,3133.2171601,S,14833.4137017,E,4,12,0.77,264.439,M,24.110,M,1.0,0000*71
#2,$GNGGA,120215.00,3133.2176106,S,14833.4122207,E,4,12,0.77,264.496,M,24.110,M,1.0,0000*74
#3,$GNGGA,120215.00,3133.2195276,S,14833.4099773,E,4,12,0.77,264.388,M,24.110,M,1.0,0000*72
#1,$GNGGA,120215.00,3133.2184325,S,14833.4109091,E,4,12,0.77,264.469,M,24.110,M,1.0,0000*7E
#4,$GNGGA,120215.10,3133.2170327,S,14833.4135874,E,4,12,0.77,264.448,M,24.110,M,1.1,0000*78
#2,$GNGGA,120215.10,3133.2174854,S,14833.4121082,E,4,12,0.77,264.501,M,24.110,M,1.1,0000*7B
#3,$GNGGA,120215.10,3133.2194040,S,14833.4098657,E,4,12,0.77,264.388,M,24.110,M,1.1,0000*72
#1,$GNGGA,120215.10,3133.2183088,S,14833.4107996,E,4,12,0.77,264.470,M,24.110,M,1.1,0000*75
#4,$GNGGA,120215.20,3133.2169044,S,14833.4134730,E,4,12,0.77,264.448,M,24.110,M,1.2,0000*78
#2,$GNGGA,120215.20,3133.2173598,S,14833.4119953,E,4,12,0.77,264.503,M,24.110,M,1.2,0000*7D
#3,$GNGGA,120215.20,3133.2192809,S,14833.4097590,E,4,12,0.77,264.400,M,24.110,M,1.2,0000*71
#1,$GNGGA,120215.20,3133.2181844,S,14833.4106869,E,4,12,0.77,264.472,M,24.110,M,1.2,0000*7D
#3,$GNGGA,120215.30,3133.2191509,S,14833.4096456,E,4,12,0.77,264.400,M,24.110,M,0.3,0000*74
#4,$GNGGA,120215.30,3133.2167787,S,14833.4133630,E,4,12,0.77,264.449,M,24.110,M,0.3,0000*78
#2,$GNGGA,120215.30,3133.2172326,S,14833.4118827,E,4,12,0.77,264.503,M,24.110,M,0.3,0000*7D
#1,$GNGGA,120215.30,3133.2180555,S,14833.4105723,E,4,12,0.77,264.465,M,24.110,M,0.3,0000*74
#4,$GNGGA,120215.40,3133.2166485,S,14833.4132481,E,4,12,0.77,264.454,M,24.110,M,0.4,0000*7D
#2,$GNGGA,120215.40,3133.2171037,S,14833.4117691,E,4,12,0.77,264.503,M,24.110,M,0.4,0000*71
#3,$GNGGA,120215.40,3133.2190251,S,14833.4095313,E,4,12,0.77,264.395,M,24.110,M,0.4,0000*71
#1,$GNGGA,120215.40,3133.2179292,S,14833.4104599,E,4,12,0.77,264.467,M,24.110,M,0.4,0000*7E
#2,$GNGGA,120215.50,3133.2169775,S,14833.4116590,E,4,12,0.77,264.504,M,24.110,M,0.5,0000*7D
#3,$GNGGA,120215.50,3133.2188986,S,14833.4094226,E,4,12,0.77,264.401,M,24.110,M,0.5,0000*75
#4,$GNGGA,120215.50,3133.2165199,S,14833.4131371,E,4,12,0.77,264.452,M,24.110,M,0.5,0000*7B
#1,$GNGGA,120215.50,3133.2178023,S,14833.4103494,E,4,12,0.77,264.473,M,24.110,M,0.5,0000*79
#3,$GNGGA,120215.60,3133.2187673,S,14833.4093106,E,4,12,0.77,264.401,M,24.110,M,0.6,0000*79
#4,$GNGGA,120215.60,3133.2163978,S,14833.4130314,E,4,12,0.77,264.456,M,24.110,M,0.6,0000*7C
#2,$GNGGA,120215.60,3133.2168493,S,14833.4115509,E,4,12,0.77,264.496,M,24.110,M,0.6,0000*7E
#1,$GNGGA,120215.60,3133.2176725,S,14833.4102402,E,4,12,0.77,264.467,M,24.110,M,0.6,0000*7D
#4,$GNGGA,120215.70,3133.2162689,S,14833.4129207,E,4,12,0.77,264.451,M,24.110,M,0.7,0000*70
#2,$GNGGA,120215.70,3133.2167217,S,14833.4114372,E,4,12,0.77,264.506,M,24.110,M,0.7,0000*78
#3,$GNGGA,120215.70,3133.2186387,S,14833.4091996,E,4,12,0.77,264.406,M,24.110,M,0.7,0000*72
#1,$GNGGA,120215.70,3133.2175448,S,14833.4101298,E,4,12,0.77,264.478,M,24.110,M,0.7,0000*7E
#4,$GNGGA,120215.80,3133.2161408,S,14833.4128097,E,4,12,0.77,264.440,M,24.110,M,0.8,0000*72
#2,$GNGGA,120215.80,3133.2165944,S,14833.4113245,E,4,12,0.77,264.515,M,24.110,M,0.8,0000*77
#3,$GNGGA,120215.80,3133.2185148,S,14833.4090889,E,4,12,0.77,264.409,M,24.110,M,0.8,0000*71
#1,$GNGGA,120215.80,3133.2174193,S,14833.4100178,E,4,12,0.77,264.479,M,24.110,M,0.8,0000*71
#4,$GNGGA,120215.90,3133.2160153,S,14833.4126983,E,4,12,0.77,264.446,M,24.110,M,0.9,0000*7C
#2,$GNGGA,120215.90,3133.2164684,S,14833.4112114,E,4,12,0.77,264.521,M,24.110,M,0.9,0000*74
#3,$GNGGA,120215.90,3133.2183892,S,14833.4089754,E,4,12,0.77,264.400,M,24.110,M,0.9,0000*77
#1,$GNGGA,120215.90,3133.2172942,S,14833.4099053,E,4,12,0.77,264.476,M,24.110,M,0.9,0000*75
#4,$GNGGA,120216.00,3133.2158859,S,14833.4125829,E,4,12,0.77,264.450,M,24.110,M,1.0,0000*73
#2,$GNGGA,120216.00,3133.2163435,S,14833.4111024,E,4,12,0.77,264.522,M,24.110,M,1.0,0000*7B
#3,$GNGGA,120216.00,3133.2182641,S,14833.4088669,E,4,12,0.77,264.403,M,24.110,M,1.0,0000*79
#1,$GNGGA,120216.00,3133.2171668,S,14833.4097917,E,4,12,0.77,264.486,M,24.110,M,1.0,0000*7B
#3,$GNGGA,120216.10,3133.2181363,S,14833.4087555,E,4,12,0.77,264.407,M,24.110,M,1.1,0000*78
#4,$GNGGA,120216.10,3133.2157584,S,14833.4124734,E,4,12,0.77,264.447,M,24.110,M,1.1,0000*75
#2,$GNGGA,120216.10,3133.2162137,S,14833.4109878,E,4,12,0.77,264.512,M,24.110,M,1.1,0000*76
#1,$GNGGA,120216.10,3133.2170370,S,14833.4096804,E,4,12,0.77,264.483,M,24.110,M,1.1,0000*71
#4,$GNGGA,120216.20,3133.2156377,S,14833.4123664,E,4,12,0.77,264.450,M,24.110,M,1.2,0000*7B
#2,$GNGGA,120216.20,3133.2160861,S,14833.4108802,E,4,12,0.77,264.509,M,24.110,M,1.2,0000*78
#3,$GNGGA,120216.20,3133.2180066,S,14833.4086421,E,4,12,0.77,264.404,M,24.110,M,1.2,0000*7F
#1,$GNGGA,120216.20,3133.2169098,S,14833.4095719,E,4,12,0.77,264.481,M,24.110,M,1.2,0000*7E
#2,$GNGGA,120216.30,3133.2159596,S,14833.4107692,E,4,12,0.77,264.510,M,24.110,M,0.3,0000*76
#3,$GNGGA,120216.30,3133.2178788,S,14833.4085290,E,4,12,0.77,264.403,M,24.110,M,0.3,0000*76
#4,$GNGGA,120216.30,3133.2155065,S,14833.4122509,E,4,12,0.77,264.453,M,24.110,M,0.3,0000*73
#1,$GNGGA,120216.30,3133.2167818,S,14833.4094581,E,4,12,0.77,264.482,M,24.110,M,0.3,0000*70
#4,$GNGGA,120216.40,3133.2153756,S,14833.4121353,E,4,12,0.77,264.449,M,24.110,M,0.4,0000*73
#2,$GNGGA,120216.40,3133.2158314,S,14833.4106573,E,4,12,0.77,264.506,M,24.110,M,0.4,0000*71
#3,$GNGGA,120216.40,3133.2177531,S,14833.4084200,E,4,12,0.77,264.412,M,24.110,M,0.4,0000*71
#1,$GNGGA,120216.40,3133.2166537,S,14833.4093458,E,4,12,0.77,264.485,M,24.110,M,0.4,0000*74
#4,$GNGGA,120216.50,3133.2152518,S,14833.4120261,E,4,12,0.77,264.459,M,24.110,M,0.5,0000*7A
#2,$GNGGA,120216.50,3133.2157059,S,14833.4105486,E,4,12,0.77,264.508,M,24.110,M,0.5,0000*72
#3,$GNGGA,120216.50,3133.2176272,S,14833.4083085,E,4,12,0.77,264.418,M,24.110,M,0.5,0000*72
#1,$GNGGA,120216.50,3133.2165292,S,14833.4092381,E,4,12,0.77,264.494,M,24.110,M,0.5,0000*7D
#4,$GNGGA,120216.60,3133.2151249,S,14833.4119132,E,4,12,0.77,264.461,M,24.110,M,0.6,0000*7E
#2,$GNGGA,120216.60,3133.2155790,S,14833.4104372,E,4,12,0.77,264.514,M,24.110,M,0.6,0000*72
#3,$GNGGA,120216.60,3133.2174997,S,14833.4081978,E,4,12,0.77,264.422,M,24.110,M,0.6,0000*70
#1,$GNGGA,120216.60,3133.2164038,S,14833.4091278,E,4,12,0.77,264.496,M,24.110,M,0.6,0000*78
#2,$GNGGA,120216.70,3133.2154488,S,14833.4103208,E,4,12,0.77,264.511,M,24.110,M,0.7,0000*77
#3,$GNGGA,120216.70,3133.2173711,S,14833.4080833,E,4,12,0.77,264.415,M,24.110,M,0.7,0000*7C
#4,$GNGGA,120216.70,3133.2149948,S,14833.4117989,E,4,12,0.77,264.462,M,24.110,M,0.7,0000*78
#1,$GNGGA,120216.70,3133.2162730,S,14833.4090121,E,4,12,0.77,264.496,M,24.110,M,0.7,0000*7F
#4,$GNGGA,120216.80,3133.2148673,S,14833.4116861,E,4,12,0.77,264.461,M,24.110,M,0.8,0000*7B
#2,$GNGGA,120216.80,3133.2153221,S,14833.4102081,E,4,12,0.77,264.507,M,24.110,M,0.8,0000*70
#3,$GNGGA,120216.80,3133.2172481,S,14833.4079747,E,4,12,0.77,264.418,M,24.110,M,0.8,0000*70
#1,$GNGGA,120216.80,3133.2161486,S,14833.4089018,E,4,12,0.77,264.493,M,24.110,M,0.8,0000*74
#4,$GNGGA,120216.90,3133.2147414,S,14833.4115714,E,4,12,0.77,264.470,M,24.110,M,0.9,0000*79
#2,$GNGGA,120216.90,3133.2151950,S,14833.4100962,E,4,12,0.77,264.510,M,24.110,M,0.9,0000*7F
#3,$GNGGA,120216.90,3133.2171210,S,14833.4078625,E,4,12,0.77,264.420,M,24.110,M,0.9,0000*72
#1,$GNGGA,120216.90,3133.2160232,S,14833.4087917,E,4,12,0.77,264.495,M,24.110,M,0.9,0000*72
#4,$GNGGA,120217.00,3133.2146123,S,14833.4114610,E,4,12,0.77,264.465,M,24.110,M,1.0,0000*79
#2,$GNGGA,120217.00,3133.2150673,S,14833.4099842,E,4,12,0.77,264.512,M,24.110,M,1.0,0000*70
#3,$GNGGA,120217.00,3133.2169918,S,14833.4077495,E,4,12,0.77,264.418,M,24.110,M,1.0,0000*75
#1,$GNGGA,120217.00,3133.2158934,S,14833.4086784,E,4,12,0.77,264.492,M,24.110,M,1.0,0000*76
#3,$GNGGA,120217.10,3133.2168609,S,14833.4076374,E,4,12,0.77,264.423,M,24.110,M,1.1,0000*7A
#4,$GNGGA,120217.10,3133.2144857,S,14833.4113519,E,4,12,0.77,264.472,M,24.110,M,1.1,0000*7A
#2,$GNGGA,120217.10,3133.2149393,S,14833.4098741,E,4,12,0.77,264.518,M,24.110,M,1.1,0000*74
#1,$GNGGA,120217.10,3133.2157646,S,14833.4085681,E,4,12,0.77,264.499,M,24.110,M,1.1,0000*7F
#4,$GNGGA,120217.20,3133.2143580,S,14833.4112418,E,4,12,0.77,264.479,M,24.110,M,1.2,0000*70
#2,$GNGGA,120217.20,3133.2148107,S,14833.4097635,E,4,12,0.77,264.517,M,24.110,M,1.2,0000*78
#3,$GNGGA,120217.20,3133.2167310,S,14833.4075232,E,4,12,0.77,264.421,M,24.110,M,1.2,0000*7A
#1,$GNGGA,120217.20,3133.2156351,S,14833.4084563,E,4,12,0.77,264.502,M,24.110,M,1.2,0000*70
#2,$GNGGA,120217.30,3133.2146816,S,14833.4096490,E,4,12,0.77,264.515,M,24.110,M,0.3,0000*70
#3,$GNGGA,120217.30,3133.2166066,S,14833.4074153,E,4,12,0.77,264.423,M,24.110,M,0.3,0000*7F
#4,$GNGGA,120217.30,3133.2142268,S,14833.4111251,E,4,12,0.77,264.467,M,24.110,M,0.3,0000*76
#1,$GNGGA,120217.30,3133.2155080,S,14833.4083434,E,4,12,0.77,264.499,M,24.110,M,0.3,0000*7A
#4,$GNGGA,120217.40,3133.2140957,S,14833.4110103,E,4,12,0.77,264.467,M,24.110,M,0.4,0000*76
#2,$GNGGA,120217.40,3133.2145539,S,14833.4095347,E,4,12,0.77,264.517,M,24.110,M,0.4,0000*7F
#3,$GNGGA,120217.40,3133.2164814,S,14833.4073038,E,4,12,0.77,264.424,M,24.110,M,0.4,0000*7C
#1,$GNGGA,120217.40,3133.2153815,S,14833.4082308,E,4,12,0.77,264.500,M,24.110,M,0.4,0000*70
#4,$GNGGA,120217.50,3133.2139674,S,14833.4108969,E,4,12,0.77,264.465,M,24.110,M,0.5,0000*79
#2,$GNGGA,120217.50,3133.2144262,S,14833.4094231,E,4,12,0.77,264.519,M,24.110,M,0.5,0000*78
#3,$GNGGA,120217.50,3133.2163549,S,14833.4071917,E,4,12,0.77,264.426,M,24.110,M,0.5,0000*7A
#1,$GNGGA,120217.50,3133.2152544,S,14833.4081191,E,4,12,0.77,264.504,M,24.110,M,0.5,0000*7D
#2,$GNGGA,120217.60,3133.2142998,S,14833.4093118,E,4,12,0.77,264.523,M,24.110,M,0.6,0000*76
#3,$GNGGA,120217.60,3133.2162281,S,14833.4070842,E,4,12,0.77,264.431,M,24.110,M,0.6,0000*7E
#4,$GNGGA,120217.60,3133.2138400,S,14833.4107875,E,4,12,0.77,264.468,M,24.110,M,0.6,0000*77
#1,$GNGGA,120217.60,3133.2151288,S,14833.4080092,E,4,12,0.77,264.508,M,24.110,M,0.6,0000*76
#4,$GNGGA,120217.70,3133.2137101,S,14833.4106752,E,4,12,0.77,264.463,M,24.110,M,0.7,0000*7C
#2,$GNGGA,120217.70,3133.2141707,S,14833.4091997,E,4,12,0.77,264.520,M,24.110,M,0.7,0000*73
#3,$GNGGA,120217.70,3133.2161017,S,14833.4069726,E,4,12,0.77,264.431,M,24.110,M,0.7,0000*75
#1,$GNGGA,120217.70,3133.2150002,S,14833.4078980,E,4,12,0.77,264.505,M,24.110,M,0.7,0000*77
#4,$GNGGA,120217.80,3133.2135843,S,14833.4105659,E,4,12,0.77,264.455,M,24.110,M,0.8,0000*7D
#2,$GNGGA,120217.80,3133.2140426,S,14833.4090893,E,4,12,0.77,264.520,M,24.110,M,0.8,0000*76
#3,$GNGGA,120217.80,3133.2159728,S,14833.4068605,E,4,12,0.77,264.431,M,24.110,M,0.8,0000*74
#1,$GNGGA,120217.80,3133.2148717,S,14833.4077866,E,4,12,0.77,264.504,M,24.110,M,0.8,0000*7A
#3,$GNGGA,120217.90,3133.2158437,S,14833.4067489,E,4,12,0.77,264.435,M,24.110,M,0.9,0000*75
#4,$GNGGA,120217.90,3133.2134593,S,14833.4104560,E,4,12,0.77,264.463,M,24.110,M,0.9,0000*71
#2,$GNGGA,120217.90,3133.2139167,S,14833.4089791,E,4,12,0.77,264.516,M,24.110,M,0.9,0000*78
#1,$GNGGA,120217.90,3133.2147443,S,14833.4076748,E,4,12,0.77,264.504,M,24.110,M,0.9,0000*75
#4,$GNGGA,120218.00,3133.2133295,S,14833.4103386,E,4,12,0.77,264.470,M,24.110,M,1.0,0000*72
#2,$GNGGA,120218.00,3133.2137893,S,14833.4088652,E,4,12,0.77,264.521,M,24.110,M,1.0,0000*71
#3,$GNGGA,120218.00,3133.2157203,S,14833.4066372,E,4,12,0.77,264.445,M,24.110,M,1.0,0000*70
#1,$GNGGA,120218.00,3133.2146187,S,14833.4075630,E,4,12,0.77,264.509,M,24.110,M,1.0,0000*77
#4,$GNGGA,120218.10,3133.2132012,S,14833.4102249,E,4,12,0.77,264.469,M,24.110,M,1.1,0000*75
#2,$GNGGA,120218.10,3133.2136619,S,14833.4087523,E,4,12,0.77,264.523,M,24.110,M,1.1,0000*74
#3,$GNGGA,120218.10,3133.2155945,S,14833.4065259,E,4,12,0.77,264.443,M,24.110,M,1.1,0000*76
#1,$GNGGA,120218.10,3133.2144918,S,14833.4074500,E,4,12,0.77,264.508,M,24.110,M,1.1,0000*7B
#3,$GNGGA,120218.20,3133.2154671,S,14833.4064160,E,4,12,0.77,264.447,M,24.110,M,1.2,0000*73
#4,$GNGGA,120218.20,3133.2130746,S,14833.4101139,E,4,12,0.77,264.473,M,24.110,M,1.2,0000*7D
#2,$GNGGA,120218.20,3133.2135357,S,14833.4086421,E,4,12,0.77,264.522,M,24.110,M,1.2,0000*7B
#1,$GNGGA,120218.20,3133.2143651,S,14833.4073400,E,4,12,0.77,264.509,M,24.110,M,1.2,0000*79
#3,$GNGGA,120218.30,3133.2153377,S,14833.4063049,E,4,12,0.77,264.443,M,24.110,M,0.3,0000*7F
#4,$GNGGA,120218.30,3133.2129466,S,14833.4100026,E,4,12,0.77,264.477,M,24.110,M,0.3,0000*7F
#2,$GNGGA,120218.30,3133.2134074,S,14833.4085321,E,4,12,0.77,264.521,M,24.110,M,0.3,0000*7E
#1,$GNGGA,120218.30,3133.2142353,S,14833.4072274,E,4,12,0.77,264.515,M,24.110,M,0.3,0000*77
#4,$GNGGA,120218.40,3133.2128188,S,14833.4098899,E,4,12,0.77,264.475,M,24.110,M,0.4,0000*75
#2,$GNGGA,120218.40,3133.2132789,S,14833.4084191,E,4,12,0.77,264.523,M,24.110,M,0.4,0000*77
#3,$GNGGA,120218.40,3133.2152115,S,14833.4061912,E,4,12,0.77,264.438,M,24.110,M,0.4,0000*71
#1,$GNGGA,120218.40,3133.2141080,S,14833.4071144,E,4,12,0.77,264.516,M,24.110,M,0.4,0000*79
#2,$GNGGA,120218.50,3133.2131524,S,14833.4083081,E,4,12,0.77,264.520,M,24.110,M,0.5,0000*75
#3,$GNGGA,120218.50,3133.2150881,S,14833.4060853,E,4,12,0.77,264.447,M,24.110,M,0.5,0000*7A
#4,$GNGGA,120218.50,3133.2126898,S,14833.4097768,E,4,12,0.77,264.469,M,24.110,M,0.5,0000*70
#1,$GNGGA,120218.50,3133.2139835,S,14833.4070053,E,4,12,0.77,264.515,M,24.110,M,0.5,0000*75
#3,$GNGGA,120218.60,3133.2149605,S,14833.4059702,E,4,12,0.77,264.432,M,24.110,M,0.6,0000*73
#4,$GNGGA,120218.60,3133.2125635,S,14833.4096654,E,4,12,0.77,264.479,M,24.110,M,0.6,0000*74
#2,$GNGGA,120218.60,3133.2130263,S,14833.4081947,E,4,12,0.77,264.520,M,24.110,M,0.6,0000*71
#1,$GNGGA,120218.60,3133.2138546,S,14833.4068923,E,4,12,0.77,264.513,M,24.110,M,0.6,0000*7C
#4,$GNGGA,120218.70,3133.2124353,S,14833.4095527,E,4,12,0.77,264.476,M,24.110,M,0.7,0000*7B
#2,$GNGGA,120218.70,3133.2128993,S,14833.4080836,E,4,12,0.77,264.526,M,24.110,M,0.7,0000*7C
#3,$GNGGA,120218.70,3133.2148344,S,14833.4058579,E,4,12,0.77,264.432,M,24.110,M,0.7,0000*7D
#1,$GNGGA,120218.70,3133.2137279,S,14833.4067792,E,4,12,0.77,264.513,M,24.110,M,0.7,0000*73
#2,$GNGGA,120218.80,3133.2127691,S,14833.4079738,E,4,12,0.77,264.523,M,24.110,M,0.8,0000*7C
#3,$GNGGA,120218.80,3133.2147021,S,14833.4057477,E,4,12,0.77,264.434,M,24.110,M,0.8,0000*74
#4,$GNGGA,120218.80,3133.2123075,S,14833.4094440,E,4,12,0.77,264.471,M,24.110,M,0.8,0000*7D
#1,$GNGGA,120218.80,3133.2135979,S,14833.4066700,E,4,12,0.77,264.516,M,24.110,M,0.8,0000*75
#3,$GNGGA,120218.90,3133.2145735,S,14833.4056349,E,4,12,0.77,264.434,M,24.110,M,0.9,0000*7F
#4,$GNGGA,120218.90,3133.2121825,S,14833.4093358,E,4,12,0.77,264.469,M,24.110,M,0.9,0000*72
#2,$GNGGA,120218.90,3133.2126432,S,14833.4078639,E,4,12,0.77,264.519,M,24.110,M,0.9,0000*7E
#1,$GNGGA,120218.90,3133.2134717,S,14833.4065596,E,4,12,0.77,264.507,M,24.110,M,0.9,0000*7C
#4,$GNGGA,120219.00,3133.2120535,S,14833.4092209,E,4,12,0.77,264.467,M,24.110,M,1.0,0000*75
#2,$GNGGA,120219.00,3133.2125164,S,14833.4077511,E,4,12,0.77,264.519,M,24.110,M,1.0,0000*7D
#3,$GNGGA,120219.00,3133.2144479,S,14833.4055267,E,4,12,0.77,264.441,M,24.110,M,1.0,0000*79
#1,$GNGGA,120219.00,3133.2133446,S,14833.4064465,E,4,12,0.77,264.512,M,24.110,M,1.0,0000*74
#2,$GNGGA,120219.10,3133.2123877,S,14833.4076363,E,4,12,0.77,264.521,M,24.110,M,1.1,0000*79
#3,$GNGGA,120219.10,3133.2143211,S,14833.4054140,E,4,12,0.77,264.442,M,24.110,M,1.1,0000*72
#4,$GNGGA,120219.10,3133.2119248,S,14833.4091074,E,4,12,0.77,264.471,M,24.110,M,1.1,0000*7E
#1,$GNGGA,120219.10,3133.2132164,S,14833.4063338,E,4,12,0.77,264.515,M,24.110,M,1.1,0000*7F
#4,$GNGGA,120219.20,3133.2117962,S,14833.4089960,E,4,12,0.77,264.471,M,24.110,M,1.2,0000*76
#3,$GNGGA,120219.20,3133.2141937,S,14833.4053018,E,4,12,0.77,264.443,M,24.110,M,1.2,0000*75
#2,$GNGGA,120219.20,3133.2122596,S,14833.4075253,E,4,12,0.77,264.522,M,24.110,M,1.2,0000*78
#1,$GNGGA,120219.20,3133.2130884,S,14833.4062221,E,4,12,0.77,264.514,M,24.110,M,1.2,0000*73
#4,$GNGGA,120219.30,3133.2116694,S,14833.4088868,E,4,12,0.77,264.465,M,24.110,M,0.3,0000*7D
#2,$GNGGA,120219.30,3133.2121308,S,14833.4074130,E,4,12,0.77,264.521,M,24.110,M,0.3,0000*7F
#3,$GNGGA,120219.30,3133.2140658,S,14833.4051889,E,4,12,0.77,264.441,M,24.110,M,0.3,0000*73
#1,$GNGGA,120219.30,3133.2129608,S,14833.4061107,E,4,12,0.77,264.512,M,24.110,M,0.3,0000*72
#3,$GNGGA,120219.40,3133.2139351,S,14833.4050791,E,4,12,0.77,264.446,M,24.110,M,0.4,0000*71
#4,$GNGGA,120219.40,3133.2115387,S,14833.4087767,E,4,12,0.77,264.461,M,24.110,M,0.4,0000*72
#2,$GNGGA,120219.40,3133.2120028,S,14833.4073017,E,4,12,0.77,264.517,M,24.110,M,0.4,0000*79
#1,$GNGGA,120219.40,3133.2128305,S,14833.4059978,E,4,12,0.77,264.508,M,24.110,M,0.4,0000*7B
#3,$GNGGA,120219.50,3133.2138069,S,14833.4049674,E,4,12,0.77,264.448,M,24.110,M,0.5,0000*74
#4,$GNGGA,120219.50,3133.2114113,S,14833.4086640,E,4,12,0.77,264.460,M,24.110,M,0.5,0000*78
#2,$GNGGA,120219.50,3133.2118740,S,14833.4071901,E,4,12,0.77,264.515,M,24.110,M,0.5,0000*75
#1,$GNGGA,120219.50,3133.2127032,S,14833.4058868,E,4,12,0.77,264.507,M,24.110,M,0.5,0000*7D
#4,$GNGGA,120219.60,3133.2112850,S,14833.4085501,E,4,12,0.77,264.461,M,24.110,M,0.6,0000*74
#2,$GNGGA,120219.60,3133.2117465,S,14833.4070771,E,4,12,0.77,264.513,M,24.110,M,0.6,0000*70
#3,$GNGGA,120219.60,3133.2136812,S,14833.4048530,E,4,12,0.77,264.439,M,24.110,M,0.6,0000*7A
#1,$GNGGA,120219.60,3133.2125759,S,14833.4057729,E,4,12,0.77,264.506,M,24.110,M,0.6,0000*71
#2,$GNGGA,120219.70,3133.2116171,S,14833.4069635,E,4,12,0.77,264.508,M,24.110,M,0.7,0000*72
#3,$GNGGA,120219.70,3133.2135541,S,14833.4047431,E,4,12,0.77,264.440,M,24.110,M,0.7,0000*73
#4,$GNGGA,120219.70,3133.2111529,S,14833.4084355,E,4,12,0.77,264.451,M,24.110,M,0.7,0000*71
#1,$GNGGA,120219.70,3133.2124480,S,14833.4056602,E,4,12,0.77,264.506,M,24.110,M,0.7,0000*7E
#3,$GNGGA,120219.80,3133.2134275,S,14833.4046313,E,4,12,0.77,264.439,M,24.110,M,0.8,0000*7A
#4,$GNGGA,120219.80,3133.2110263,S,14833.4083256,E,4,12,0.77,264.451,M,24.110,M,0.8,0000*7C
#2,$GNGGA,120219.80,3133.2114909,S,14833.4068521,E,4,12,0.77,264.507,M,24.110,M,0.8,0000*7F
#1,$GNGGA,120219.80,3133.2123209,S,14833.4055496,E,4,12,0.77,264.506,M,24.110,M,0.8,0000*72
#4,$GNGGA,120219.90,3133.2109002,S,14833.4082117,E,4,12,0.77,264.454,M,24.110,M,0.9,0000*73
#2,$GNGGA,120219.90,3133.2113630,S,14833.4067395,E,4,12,0.77,264.512,M,24.110,M,0.9,0000*7F
#3,$GNGGA,120219.90,3133.2132990,S,14833.4045173,E,4,12,0.77,264.434,M,24.110,M,0.9,0000*76
#1,$GNGGA,120219.90,3133.2121942,S,14833.4054374,E,4,12,0.77,264.506,M,24.110,M,0.9,0000*7E
#3,$GNGGA,120220.00,3133.2131717,S,14833.4044044,E,4,12,0.77,264.437,M,24.110,M,1.0,0000*78
#4,$GNGGA,120220.00,3133.2107688,S,14833.4080980,E,4,12,0.77,264.455,M,24.110,M,1.0,0000*77
#2,$GNGGA,120220.00,3133.2112341,S,14833.4066267,E,4,12,0.77,264.510,M,24.110,M,1.0,0000*79
#1,$GNGGA,120220.00,3133.2120661,S,14833.4053256,E,4,12,0.77,264.511,M,24.110,M,1.0,0000*7A
#3,$GNGGA,120220.10,3133.2130417,S,14833.4042936,E,4,12,0.77,264.437,M,24.110,M,1.1,0000*70
#4,$GNGGA,120220.10,3133.2106421,S,14833.4079873,E,4,12,0.77,264.447,M,24.110,M,1.1,0000*7F
#2,$GNGGA,120220.10,3133.2111059,S,14833.4065163,E,4,12,0.77,264.502,M,24.110,M,1.1,0000*77
#1,$GNGGA,120220.10,3133.2119360,S,14833.4052138,E,4,12,0.77,264.505,M,24.110,M,1.1,0000*7B
#4,$GNGGA,120220.20,3133.2105165,S,14833.4078798,E,4,12,0.77,264.447,M,24.110,M,1.2,0000*72
#2,$GNGGA,120220.20,3133.2109785,S,14833.4064065,E,4,12,0.77,264.501,M,24.110,M,1.2,0000*7D
#3,$GNGGA,120220.20,3133.2129120,S,14833.4041774,E,4,12,0.77,264.419,M,24.110,M,1.2,0000*7E
#1,$GNGGA,120220.20,3133.2118079,S,14833.4051030,E,4,12,0.77,264.501,M,24.110,M,1.2,0000*7F
#3,$GNGGA,120220.30,3133.2127879,S,14833.4040672,E,4,12,0.77,264.420,M,24.110,M,0.3,0000*78
#4,$GNGGA,120220.30,3133.2103892,S,14833.4077656,E,4,12,0.77,264.444,M,24.111,M,0.3,0000*7A
#2,$GNGGA,120220.30,3133.2108513,S,14833.4062929,E,4,12,0.77,264.503,M,24.110,M,0.3,0000*75
#1,$GNGGA,120220.30,3133.2116815,S,14833.4049900,E,4,12,0.77,264.500,M,24.110,M,0.3,0000*70
#3,$GNGGA,120220.40,3133.2126635,S,14833.4039615,E,4,12,0.77,264.420,M,24.110,M,0.4,0000*70
#4,$GNGGA,120220.40,3133.2102591,S,14833.4076521,E,4,12,0.77,264.440,M,24.111,M,0.4,0000*73
#2,$GNGGA,120220.40,3133.2107232,S,14833.4061814,E,4,12,0.77,264.498,M,24.110,M,0.4,0000*71
#1,$GNGGA,120220.40,3133.2115556,S,14833.4048795,E,4,12,0.77,264.495,M,24.110,M,0.4,0000*77
#3,$GNGGA,120220.50,3133.2125347,S,14833.4038489,E,4,12,0.77,264.418,M,24.110,M,0.5,0000*7E
#4,$GNGGA,120220.50,3133.2101319,S,14833.4075425,E,4,12,0.77,264.443,M,24.111,M,0.5,0000*73
#2,$GNGGA,120220.50,3133.2105958,S,14833.4060705,E,4,12,0.77,264.498,M,24.110,M,0.5,0000*7A
#1,$GNGGA,120220.50,3133.2114275,S,14833.4047692,E,4,12,0.77,264.497,M,24.110,M,0.5,0000*7B
#3,$GNGGA,120220.60,3133.2124065,S,14833.4037359,E,4,12,0.77,264.414,M,24.110,M,0.6,0000*75
#4,$GNGGA,120220.60,3133.2100053,S,14833.4074312,E,4,12,0.77,264.446,M,24.111,M,0.6,0000*78
#2,$GNGGA,120220.60,3133.2104690,S,14833.4059591,E,4,12,0.77,264.501,M,24.110,M,0.6,0000*74
#1,$GNGGA,120220.60,3133.2112992,S,14833.4046572,E,4,12,0.77,264.497,M,24.110,M,0.6,0000*73
#3,$GNGGA,120220.70,3133.2122794,S,14833.4036278,E,4,12,0.77,264.420,M,24.110,M,0.7,0000*7E
#4,$GNGGA,120220.70,3133.2098769,S,14833.4073176,E,4,12,0.77,264.441,M,24.111,M,0.7,0000*76
#2,$GNGGA,120220.70,3133.2103404,S,14833.4058468,E,4,12,0.77,264.496,M,24.110,M,0.7,0000*75
#1,$GNGGA,120220.70,3133.2111728,S,14833.4045449,E,4,12,0.77,264.491,M,24.110,M,0.7,0000*73
#4,$GNGGA,120220.80,3133.2097484,S,14833.4072065,E,4,12,0.77,264.445,M,24.111,M,0.8,0000*7F
#2,$GNGGA,120220.80,3133.2102128,S,14833.4057350,E,4,12,0.77,264.495,M,24.110,M,0.8,0000*7F
#3,$GNGGA,120220.80,3133.2121502,S,14833.4035158,E,4,12,0.77,264.423,M,24.110,M,0.8,0000*71
#1,$GNGGA,120220.80,3133.2110446,S,14833.4044327,E,4,12,0.77,264.488,M,24.110,M,0.8,0000*7F
#3,$GNGGA,120220.90,3133.2120220,S,14833.4034016,E,4,12,0.77,264.416,M,24.110,M,0.9,0000*7B
#4,$GNGGA,120220.90,3133.2096227,S,14833.4070961,E,4,12,0.77,264.451,M,24.111,M,0.9,0000*7B
#2,$GNGGA,120220.90,3133.2100856,S,14833.4056250,E,4,12,0.77,264.497,M,24.110,M,0.9,0000*7F
#1,$GNGGA,120220.90,3133.2109162,S,14833.4043229,E,4,12,0.77,264.492,M,24.110,M,0.9,0000*77
#3,$GNGGA,120221.00,3133.2118970,S,14833.4032940,E,4,12,0.77,264.422,M,24.110,M,1.0,0000*75
#4,$GNGGA,120221.00,3133.2094918,S,14833.4069833,E,4,12,0.77,264.443,M,24.111,M,1.0,0000*73
#2,$GNGGA,120221.00,3133.2099581,S,14833.4055129,E,4,12,0.77,264.496,M,24.110,M,1.0,0000*76
#1,$GNGGA,120221.00,3133.2107898,S,14833.4042113,E,4,12,0.77,264.491,M,24.110,M,1.0,0000*7D
#4,$GNGGA,120221.10,3133.2093669,S,14833.4068740,E,4,12,0.77,264.444,M,24.111,M,1.1,0000*70
#2,$GNGGA,120221.10,3133.2098306,S,14833.4054022,E,4,12,0.77,264.494,M,24.110,M,1.1,0000*77
#3,$GNGGA,120221.10,3133.2117684,S,14833.4031821,E,4,12,0.77,264.419,M,24.110,M,1.1,0000*73
#1,$GNGGA,120221.10,3133.2106614,S,14833.4040997,E,4,12,0.77,264.491,M,24.110,M,1.1,0000*70
#4,$GNGGA,120221.20,3133.2092386,S,14833.4067608,E,4,12,0.77,264.449,M,24.111,M,1.2,0000*7A
#2,$GNGGA,120221.20,3133.2097041,S,14833.4052901,E,4,12,0.77,264.495,M,24.110,M,1.2,0000*77
#3,$GNGGA,120221.20,3133.2116429,S,14833.4030719,E,4,12,0.77,264.419,M,24.110,M,1.2,0000*72
#1,$GNGGA,120221.20,3133.2105358,S,14833.4039891,E,4,12,0.77,264.487,M,24.110,M,1.2,0000*70
#3,$GNGGA,120221.30,3133.2115162,S,14833.4029598,E,4,12,0.77,264.419,M,24.110,M,0.3,0000*79
#4,$GNGGA,120221.30,3133.2091095,S,14833.4066472,E,4,12,0.77,264.444,M,24.111,M,0.3,0000*7A
#2,$GNGGA,120221.30,3133.2095749,S,14833.4051779,E,4,12,0.77,264.491,M,24.110,M,0.3,0000*7D
#1,$GNGGA,120221.30,3133.2104085,S,14833.4038778,E,4,12,0.77,264.488,M,24.110,M,0.3,0000*75
#4,$GNGGA,120221.40,3133.2089843,S,14833.4065380,E,4,12,0.77,264.447,M,24.111,M,0.4,0000*7A
#2,$GNGGA,120221.40,3133.2094487,S,14833.4050667,E,4,12,0.77,264.492,M,24.111,M,0.4,0000*70
#3,$GNGGA,120221.40,3133.2113878,S,14833.4028476,E,4,12,0.77,264.416,M,24.110,M,0.4,0000*72
#1,$GNGGA,120221.40,3133.2102811,S,14833.4037658,E,4,12,0.77,264.485,M,24.110,M,0.4,0000*77
#3,$GNGGA,120221.50,3133.2112603,S,14833.4027377,E,4,12,0.77,264.420,M,24.110,M,0.5,0000*7D
#4,$GNGGA,120221.50,3133.2088560,S,14833.4064266,E,4,12,0.77,264.445,M,24.111,M,0.5,0000*7D
#2,$GNGGA,120221.50,3133.2093217,S,14833.4049555,E,4,12,0.77,264.489,M,24.111,M,0.5,0000*78
#1,$GNGGA,120221.50,3133.2101541,S,14833.4036539,E,4,12,0.77,264.480,M,24.110,M,0.5,0000*7C
#3,$GNGGA,120221.60,3133.2111317,S,14833.4026250,E,4,12,0.77,264.412,M,24.110,M,0.6,0000*7A
#4,$GNGGA,120221.60,3133.2087286,S,14833.4063170,E,4,12,0.77,264.435,M,24.111,M,0.6,0000*79
#2,$GNGGA,120221.60,3133.2091930,S,14833.4048443,E,4,12,0.77,264.485,M,24.111,M,0.6,0000*7F
#1,$GNGGA,120221.60,3133.2100245,S,14833.4035431,E,4,12,0.77,264.476,M,24.110,M,0.6,0000*7D
#4,$GNGGA,120221.70,3133.2086032,S,14833.4062078,E,4,12,0.77,264.430,M,24.111,M,0.7,0000*78
#2,$GNGGA,120221.70,3133.2090666,S,14833.4047348,E,4,12,0.77,264.484,M,24.111,M,0.7,0000*70
#3,$GNGGA,120221.70,3133.2110052,S,14833.4025140,E,4,12,0.77,264.405,M,24.110,M,0.7,0000*7E
#1,$GNGGA,120221.70,3133.2098979,S,14833.4034338,E,4,12,0.77,264.474,M,24.110,M,0.7,0000*74
#4,$GNGGA,120221.80,3133.2084767,S,14833.4060983,E,4,12,0.77,264.432,M,24.111,M,0.8,0000*70
#2,$GNGGA,120221.80,3133.2089391,S,14833.4046253,E,4,12,0.77,264.485,M,24.111,M,0.8,0000*7E
#3,$GNGGA,120221.80,3133.2108769,S,14833.4024046,E,4,12,0.77,264.414,M,24.110,M,0.8,0000*7E
#1,$GNGGA,120221.80,3133.2097717,S,14833.4033232,E,4,12,0.77,264.479,M,24.110,M,0.8,0000*7C
#4,$GNGGA,120221.90,3133.2083480,S,14833.4059871,E,4,12,0.77,264.433,M,24.111,M,0.9,0000*7A
#2,$GNGGA,120221.90,3133.2088106,S,14833.4045125,E,4,12,0.77,264.479,M,24.111,M,0.9,0000*71
#3,$GNGGA,120221.90,3133.2107486,S,14833.4022921,E,4,12,0.77,264.410,M,24.110,M,0.9,0000*79
#1,$GNGGA,120221.90,3133.2096423,S,14833.4032103,E,4,12,0.77,264.470,M,24.110,M,0.9,0000*70
#4,$GNGGA,120222.00,3133.2082192,S,14833.4058718,E,4,12,0.77,264.433,M,24.111,M,1.0,0000*7E
#2,$GNGGA,120222.00,3133.2086840,S,14833.4043987,E,4,12,0.77,264.479,M,24.111,M,1.0,0000*70
#3,$GNGGA,120222.00,3133.2106243,S,14833.4021814,E,4,12,0.77,264.409,M,24.110,M,1.0,0000*79
#1,$GNGGA,120222.00,3133.2095179,S,14833.4030978,E,4,12,0.77,264.473,M,24.110,M,1.0,0000*7E
#2,$GNGGA,120222.10,3133.2085571,S,14833.4042861,E,4,12,0.77,264.477,M,24.111,M,1.1,0000*7A
#3,$GNGGA,120222.10,3133.2105008,S,14833.4020722,E,4,12,0.77,264.419,M,24.110,M,1.1,0000*7D
#4,$GNGGA,120222.10,3133.2080890,S,14833.4057563,E,4,12,0.77,264.433,M,24.111,M,1.1,0000*76
#1,$GNGGA,120222.10,3133.2093930,S,14833.4029858,E,4,12,0.77,264.475,M,24.110,M,1.1,0000*70
#4,$GNGGA,120222.20,3133.2079639,S,14833.4056466,E,4,12,0.77,264.434,M,24.111,M,1.2,0000*7F
#2,$GNGGA,120222.20,3133.2084311,S,14833.4041758,E,4,12,0.77,264.476,M,24.111,M,1.2,0000*7C
#3,$GNGGA,120222.20,3133.2103729,S,14833.4019594,E,4,12,0.77,264.406,M,24.110,M,1.2,0000*74
#1,$GNGGA,120222.20,3133.2092668,S,14833.4028748,E,4,12,0.77,264.466,M,24.110,M,1.2,0000*7E
#4,$GNGGA,120222.30,3133.2078348,S,14833.4055319,E,4,12,0.77,264.426,M,24.111,M,0.3,0000*73
#2,$GNGGA,120222.30,3133.2083037,S,14833.4040628,E,4,12,0.77,264.466,M,24.111,M,0.3,0000*7B
#3,$GNGGA,120222.30,3133.2102496,S,14833.4018530,E,4,12,0.77,264.409,M,24.110,M,0.3,0000*73
#1,$GNGGA,120222.30,3133.2091417,S,14833.4027652,E,4,12,0.77,264.457,M,24.110,M,0.3,0000*71
#4,$GNGGA,120222.40,3133.2077072,S,14833.4054242,E,4,12,0.77,264.419,M,24.111,M,0.4,0000*74
#2,$GNGGA,120222.40,3133.2081762,S,14833.4039536,E,4,12,0.77,264.468,M,24.111,M,0.4,0000*72
#3,$GNGGA,120222.40,3133.2101205,S,14833.4017447,E,4,12,0.77,264.422,M,24.110,M,0.4,0000*7B
#1,$GNGGA,120222.40,3133.2090146,S,14833.4026550,E,4,12,0.77,264.461,M,24.110,M,0.4,0000*74
#4,$GNGGA,120222.50,3133.2075832,S,14833.4053158,E,4,12,0.77,264.427,M,24.111,M,0.5,0000*78
#2,$GNGGA,120222.50,3133.2080500,S,14833.4038471,E,4,12,0.77,264.474,M,24.111,M,0.5,0000*7B
#3,$GNGGA,120222.50,3133.2099891,S,14833.4016267,E,4,12,0.77,264.410,M,24.110,M,0.5,0000*78
#1,$GNGGA,120222.50,3133.2088836,S,14833.4025453,E,4,12,0.77,264.457,M,24.110,M,0.5,0000*77
#4,$GNGGA,120222.60,3133.2074537,S,14833.4052014,E,4,12,0.77,264.422,M,24.111,M,0.6,0000*7C
#2,$GNGGA,120222.60,3133.2079225,S,14833.4037341,E,4,12,0.77,264.468,M,24.111,M,0.6,0000*7B
#3,$GNGGA,120222.60,3133.2098649,S,14833.4015212,E,4,12,0.77,264.408,M,24.110,M,0.6,0000*7A
#1,$GNGGA,120222.60,3133.2087571,S,14833.4024340,E,4,12,0.77,264.450,M,24.110,M,0.6,0000*75
#2,$GNGGA,120222.70,3133.2077942,S,14833.4036212,E,4,12,0.77,264.474,M,24.111,M,0.7,0000*74
#3,$GNGGA,120222.70,3133.2097386,S,14833.4014101,E,4,12,0.77,264.419,M,24.110,M,0.7,0000*73
#4,$GNGGA,120222.70,3133.2073242,S,14833.4050912,E,4,12,0.77,264.418,M,24.111,M,0.7,0000*7A
#1,$GNGGA,120222.70,3133.2086305,S,14833.4023230,E,4,12,0.77,264.453,M,24.110,M,0.7,0000*73
#4,$GNGGA,120222.80,3133.2071949,S,14833.4049789,E,4,12,0.77,264.417,M,24.111,M,0.8,0000*73
#2,$GNGGA,120222.80,3133.2076664,S,14833.4035112,E,4,12,0.77,264.476,M,24.111,M,0.8,0000*7C
#3,$GNGGA,120222.80,3133.2096097,S,14833.4012991,E,4,12,0.77,264.427,M,24.110,M,0.8,0000*7B
#1,$GNGGA,120222.80,3133.2085023,S,14833.4022104,E,4,12,0.77,264.458,M,24.110,M,0.8,0000*79
#4,$GNGGA,120222.90,3133.2070695,S,14833.4048697,E,4,12,0.77,264.421,M,24.111,M,0.9,0000*76
#2,$GNGGA,120222.90,3133.2075384,S,14833.4034009,E,4,12,0.77,264.468,M,24.111,M,0.9,0000*71
#3,$GNGGA,120222.90,3133.2094805,S,14833.4011864,E,4,12,0.77,264.424,M,24.110,M,0.9,0000*71
#1,$GNGGA,120222.90,3133.2083742,S,14833.4020987,E,4,12,0.77,264.452,M,24.110,M,0.9,0000*74
#2,$GNGGA,120223.00,3133.2074109,S,14833.4032896,E,4,12,0.77,264.468,M,24.111,M,1.0,0000*7F
#3,$GNGGA,120223.00,3133.2093571,S,14833.4010760,E,4,12,0.77,264.429,M,24.110,M,1.0,0000*7F
#4,$GNGGA,120223.00,3133.2069432,S,14833.4047545,E,4,12,0.77,264.424,M,24.111,M,1.0,0000*77
#1,$GNGGA,120223.00,3133.2082497,S,14833.4019915,E,4,12,0.77,264.463,M,24.110,M,1.0,0000*7D
#4,$GNGGA,120223.10,3133.2068131,S,14833.4046438,E,4,12,0.77,264.418,M,24.111,M,1.1,0000*75
#2,$GNGGA,120223.10,3133.2072838,S,14833.4031771,E,4,12,0.77,264.474,M,24.111,M,1.1,0000*7A
#3,$GNGGA,120223.10,3133.2092292,S,14833.4009648,E,4,12,0.77,264.431,M,24.110,M,1.1,0000*7E
#1,$GNGGA,120223.10,3133.2081230,S,14833.4018788,E,4,12,0.77,264.469,M,24.110,M,1.1,0000*74
#4,$GNGGA,120223.20,3133.2066905,S,14833.4045341,E,4,12,0.77,264.427,M,24.111,M,1.2,0000*72
#2,$GNGGA,120223.20,3133.2071567,S,14833.4030650,E,4,12,0.77,264.474,M,24.111,M,1.2,0000*7D
#3,$GNGGA,120223.20,3133.2091010,S,14833.4008491,E,4,12,0.77,264.415,M,24.110,M,1.2,0000*74
#1,$GNGGA,120223.20,3133.2079941,S,14833.4017662,E,4,12,0.77,264.468,M,24.110,M,1.2,0000*75
#2,$GNGGA,120223.30,3133.2070297,S,14833.4029529,E,4,12,0.77,264.467,M,24.111,M,0.3,0000*72
#3,$GNGGA,120223.30,3133.2089759,S,14833.4007408,E,4,12,0.77,264.408,M,24.110,M,0.3,0000*75
#4,$GNGGA,120223.30,3133.2065623,S,14833.4044190,E,4,12,0.77,264.439,M,24.111,M,0.3,0000*7B
#1,$GNGGA,120223.30,3133.2078680,S,14833.4016564,E,4,12,0.77,264.459,M,24.110,M,0.3,0000*71
#4,$GNGGA,120223.40,3133.2064322,S,14833.4043064,E,4,12,0.77,264.427,M,24.111,M,0.4,0000*7C
#2,$GNGGA,120223.40,3133.2069028,S,14833.4028402,E,4,12,0.77,264.468,M,24.111,M,0.4,0000*7A
#3,$GNGGA,120223.40,3133.2088522,S,14833.4006337,E,4,12,0.77,264.413,M,24.110,M,0.4,0000*7A
#1,$GNGGA,120223.40,3133.2077426,S,14833.4015444,E,4,12,0.77,264.453,M,24.110,M,0.4,0000*7A
#4,$GNGGA,120223.50,3133.2063057,S,14833.4041985,E,4,12,0.77,264.431,M,24.111,M,0.5,0000*79
#2,$GNGGA,120223.50,3133.2067787,S,14833.4027315,E,4,12,0.77,264.478,M,24.111,M,0.5,0000*79
#3,$GNGGA,120223.50,3133.2087239,S,14833.4005220,E,4,12,0.77,264.415,M,24.110,M,0.5,0000*7A
#1,$GNGGA,120223.50,3133.2076148,S,14833.4014332,E,4,12,0.77,264.463,M,24.110,M,0.5,0000*72
#2,$GNGGA,120223.60,3133.2066511,S,14833.4026204,E,4,12,0.77,264.477,M,24.111,M,0.6,0000*7A
#3,$GNGGA,120223.60,3133.2085957,S,14833.4004103,E,4,12,0.77,264.409,M,24.110,M,0.6,0000*75
#4,$GNGGA,120223.60,3133.2061794,S,14833.4040876,E,4,12,0.77,264.431,M,24.111,M,0.6,0000*7F
#1,$GNGGA,120223.60,3133.2074878,S,14833.4013207,E,4,12,0.77,264.454,M,24.110,M,0.6,0000*7E
#3,$GNGGA,120223.70,3133.2084699,S,14833.4003006,E,4,12,0.77,264.405,M,24.110,M,0.7,0000*76
#4,$GNGGA,120223.70,3133.2060507,S,14833.4039759,E,4,12,0.77,264.426,M,24.111,M,0.7,0000*7C
#2,$GNGGA,120223.70,3133.2065242,S,14833.4025087,E,4,12,0.77,264.480,M,24.111,M,0.7,0000*7A
#1,$GNGGA,120223.70,3133.2073623,S,14833.4012111,E,4,12,0.77,264.450,M,24.110,M,0.7,0000*78
#4,$GNGGA,120223.80,3133.2059253,S,14833.4038668,E,4,12,0.77,264.420,M,24.111,M,0.8,0000*74
#2,$GNGGA,120223.80,3133.2063987,S,14833.4023989,E,4,12,0.77,264.485,M,24.111,M,0.8,0000*7A
#3,$GNGGA,120223.80,3133.2083437,S,14833.4001899,E,4,12,0.77,264.413,M,24.110,M,0.8,0000*7C
#1,$GNGGA,120223.80,3133.2072373,S,14833.4011036,E,4,12,0.77,264.463,M,24.110,M,0.8,0000*7E
#3,$GNGGA,120223.90,3133.2082138,S,14833.4000770,E,4,12,0.77,264.413,M,24.110,M,0.9,0000*7E
#4,$GNGGA,120223.90,3133.2057990,S,14833.4037583,E,4,12,0.77,264.411,M,24.111,M,0.9,0000*75
#2,$GNGGA,120223.90,3133.2062701,S,14833.4022907,E,4,12,0.77,264.481,M,24.111,M,0.9,0000*78
#1,$GNGGA,120223.90,3133.2071065,S,14833.4009910,E,4,12,0.77,264.461,M,24.110,M,0.9,0000*7F
#4,$GNGGA,120224.00,3133.2056738,S,14833.4036482,E,4,12,0.77,264.406,M,24.111,M,1.0,0000*79
#2,$GNGGA,120224.00,3133.2061436,S,14833.4021784,E,4,12,0.77,264.475,M,24.111,M,1.0,0000*77
#3,$GNGGA,120224.00,3133.2080865,S,14833.3999671,E,4,12,0.77,264.415,M,24.110,M,1.0,0000*73
#1,$GNGGA,120224.00,3133.2069806,S,14833.4008807,E,4,12,0.77,264.458,M,24.110,M,1.0,0000*71
#2,$GNGGA,120224.10,3133.2060178,S,14833.4020693,E,4,12,0.77,264.472,M,24.111,M,1.1,0000*78
#3,$GNGGA,120224.10,3133.2079597,S,14833.3998557,E,4,12,0.77,264.420,M,24.110,M,1.1,0000*75
#4,$GNGGA,120224.10,3133.2055489,S,14833.4035396,E,4,12,0.77,264.400,M,24.111,M,1.1,0000*74
#1,$GNGGA,120224.10,3133.2068550,S,14833.4007690,E,4,12,0.77,264.456,M,24.110,M,1.1,0000*7F
#2,$GNGGA,120224.20,3133.2058927,S,14833.4019601,E,4,12,0.77,264.472,M,24.111,M,1.2,0000*70
#3,$GNGGA,120224.20,3133.2078329,S,14833.3997411,E,4,12,0.77,264.411,M,24.110,M,1.2,0000*79
#4,$GNGGA,120224.20,3133.2054263,S,14833.4034294,E,4,12,0.77,264.409,M,24.111,M,1.2,0000*7C
#1,$GNGGA,120224.20,3133.2067279,S,14833.4006600,E,4,12,0.77,264.458,M,24.111,M,1.2,0000*7B
#3,$GNGGA,120224.30,3133.2077107,S,14833.3996314,E,4,12,0.77,264.412,M,24.110,M,0.3,0000*79
#4,$GNGGA,120224.30,3133.2052968,S,14833.4033135,E,4,12,0.77,264.409,M,24.111,M,0.3,0000*74
#2,$GNGGA,120224.30,3133.2057664,S,14833.4018462,E,4,12,0.77,264.468,M,24.111,M,0.3,0000*7B
#1,$GNGGA,120224.30,3133.2066027,S,14833.4005456,E,4,12,0.77,264.458,M,24.111,M,0.3,0000*70
#4,$GNGGA,120224.40,3133.2051727,S,14833.4032011,E,4,12,0.77,264.412,M,24.111,M,0.4,0000*7E
#2,$GNGGA,120224.40,3133.2056399,S,14833.4017358,E,4,12,0.77,264.458,M,24.111,M,0.4,0000*7F
#3,$GNGGA,120224.40,3133.2075860,S,14833.3995215,E,4,12,0.77,264.414,M,24.110,M,0.4,0000*76
#1,$GNGGA,120224.40,3133.2064774,S,14833.4004354,E,4,12,0.77,264.462,M,24.111,M,0.4,0000*7E
#2,$GNGGA,120224.50,3133.2055159,S,14833.4016254,E,4,12,0.77,264.460,M,24.111,M,0.5,0000*75
#3,$GNGGA,120224.50,3133.2074582,S,14833.3994073,E,4,12,0.77,264.405,M,24.110,M,0.5,0000*75
#4,$GNGGA,120224.50,3133.2050513,S,14833.4030917,E,4,12,0.77,264.427,M,24.111,M,0.5,0000*71
#1,$GNGGA,120224.50,3133.2063523,S,14833.4003267,E,4,12,0.77,264.465,M,24.111,M,0.5,0000*78
#2,$GNGGA,120224.60,3133.2053888,S,14833.4015122,E,4,12,0.77,264.458,M,24.111,M,0.6,0000*7C
#3,$GNGGA,120224.60,3133.2073324,S,14833.3992951,E,4,12,0.77,264.400,M,24.110,M,0.6,0000*72
#4,$GNGGA,120224.60,3133.2049248,S,14833.4029784,E,4,12,0.77,264.431,M,24.111,M,0.6,0000*7B
#1,$GNGGA,120224.60,3133.2062256,S,14833.4002147,E,4,12,0.77,264.461,M,24.111,M,0.6,0000*78
#4,$GNGGA,120224.70,3133.2047955,S,14833.4028662,E,4,12,0.77,264.433,M,24.111,M,0.7,0000*78
#2,$GNGGA,120224.70,3133.2052630,S,14833.4014004,E,4,12,0.77,264.455,M,24.111,M,0.7,0000*79
#3,$GNGGA,120224.70,3133.2072057,S,14833.3991872,E,4,12,0.77,264.404,M,24.110,M,0.7,0000*73
#1,$GNGGA,120224.70,3133.2061004,S,14833.4001009,E,4,12,0.77,264.457,M,24.111,M,0.7,0000*73
#2,$GNGGA,120224.80,3133.2051374,S,14833.4012878,E,4,12,0.77,264.462,M,24.111,M,0.8,0000*7E
#3,$GNGGA,120224.80,3133.2070807,S,14833.3990730,E,4,12,0.77,264.396,M,24.110,M,0.8,0000*78
#4,$GNGGA,120224.80,3133.2046694,S,14833.4027555,E,4,12,0.77,264.428,M,24.111,M,0.8,0000*79
#1,$GNGGA,120224.80,3133.2059732,S,14833.3999892,E,4,12,0.77,264.459,M,24.111,M,0.8,0000*71
#3,$GNGGA,120224.90,3133.2069559,S,14833.3989666,E,4,12,0.77,264.403,M,24.110,M,0.9,0000*77
#4,$GNGGA,120224.90,3133.2045400,S,14833.4026420,E,4,12,0.77,264.425,M,24.111,M,0.9,0000*7A
#2,$GNGGA,120224.90,3133.2050110,S,14833.4011768,E,4,12,0.77,264.467,M,24.111,M,0.9,0000*77
#1,$GNGGA,120224.90,3133.2058489,S,14833.3998788,E,4,12,0.77,264.459,M,24.111,M,0.9,0000*76
#4,$GNGGA,120225.00,3133.2044132,S,14833.4025328,E,4,12,0.77,264.422,M,24.111,M,1.0,0000*74
#2,$GNGGA,120225.00,3133.2048831,S,14833.4010638,E,4,12,0.77,264.464,M,24.111,M,1.0,0000*72
#3,$GNGGA,120225.00,3133.2068280,S,14833.3988533,E,4,12,0.77,264.394,M,24.110,M,1.0,0000*7E
#1,$GNGGA,120225.00,3133.2057205,S,14833.3997665,E,4,12,0.77,264.450,M,24.111,M,1.0,0000*7F
#2,$GNGGA,120225.10,3133.2047552,S,14833.4009552,E,4,12,0.77,264.463,M,24.111,M,1.1,0000*75
#3,$GNGGA,120225.10,3133.2066999,S,14833.3987396,E,4,12,0.77,264.391,M,24.110,M,1.1,0000*70
#4,$GNGGA,120225.10,3133.2042863,S,14833.4024228,E,4,12,0.77,264.421,M,24.111,M,1.1,0000*7C
#1,$GNGGA,120225.10,3133.2055922,S,14833.3996576,E,4,12,0.77,264.451,M,24.111,M,1.1,0000*72
#4,$GNGGA,120225.20,3133.2041593,S,14833.4023165,E,4,12,0.77,264.424,M,24.111,M,1.2,0000*75
#2,$GNGGA,120225.20,3133.2046265,S,14833.4008486,E,4,12,0.77,264.468,M,24.111,M,1.2,0000*75
#3,$GNGGA,120225.20,3133.2065690,S,14833.3986327,E,4,12,0.77,264.406,M,24.110,M,1.2,0000*77
#1,$GNGGA,120225.20,3133.2054621,S,14833.3995484,E,4,12,0.77,264.464,M,24.111,M,1.2,0000*76
#2,$GNGGA,120225.30,3133.2044983,S,14833.4007388,E,4,12,0.77,264.470,M,24.111,M,0.3,0000*7A
#3,$GNGGA,120225.30,3133.2064350,S,14833.3985187,E,4,12,0.77,264.412,M,24.110,M,0.3,0000*70
#4,$GNGGA,120225.30,3133.2040357,S,14833.4022077,E,4,12,0.77,264.425,M,24.111,M,0.3,0000*79
#1,$GNGGA,120225.30,3133.2053304,S,14833.3994346,E,4,12,0.77,264.466,M,24.111,M,0.3,0000*78
#2,$GNGGA,120225.40,3133.2043713,S,14833.4006268,E,4,12,0.77,264.469,M,24.111,M,0.4,0000*7C
#3,$GNGGA,120225.40,3133.2063114,S,14833.3984052,E,4,12,0.77,264.409,M,24.110,M,0.4,0000*77
#4,$GNGGA,120225.40,3133.2039079,S,14833.4020975,E,4,12,0.77,264.418,M,24.111,M,0.4,0000*7F
#1,$GNGGA,120225.40,3133.2052038,S,14833.3993229,E,4,12,0.77,264.466,M,24.111,M,0.4,0000*7A
#2,$GNGGA,120225.50,3133.2042452,S,14833.4005146,E,4,12,0.77,264.480,M,24.111,M,0.5,0000*70
#3,$GNGGA,120225.50,3133.2061873,S,14833.3982978,E,4,12,0.77,264.422,M,24.110,M,0.5,0000*73
#4,$GNGGA,120225.50,3133.2037793,S,14833.4019830,E,4,12,0.77,264.419,M,24.111,M,0.5,0000*79
#1,$GNGGA,120225.50,3133.2050802,S,14833.3992132,E,4,12,0.77,264.477,M,24.111,M,0.5,0000*71
#2,$GNGGA,120225.60,3133.2041169,S,14833.4004027,E,4,12,0.77,264.472,M,24.111,M,0.6,0000*74
#3,$GNGGA,120225.60,3133.2060563,S,14833.3981824,E,4,12,0.77,264.416,M,24.110,M,0.6,0000*72
#4,$GNGGA,120225.60,3133.2036544,S,14833.4018720,E,4,12,0.77,264.417,M,24.111,M,0.6,0000*71
#1,$GNGGA,120225.60,3133.2049499,S,14833.3990997,E,4,12,0.77,264.470,M,24.111,M,0.6,0000*75
#2,$GNGGA,120225.70,3133.2039916,S,14833.4002901,E,4,12,0.77,264.477,M,24.111,M,0.7,0000*75
#3,$GNGGA,120225.70,3133.2059317,S,14833.3980711,E,4,12,0.77,264.414,M,24.110,M,0.7,0000*77
#4,$GNGGA,120225.70,3133.2035289,S,14833.4017612,E,4,12,0.77,264.418,M,24.111,M,0.7,0000*74
#1,$GNGGA,120225.70,3133.2048246,S,14833.3989881,E,4,12,0.77,264.469,M,24.111,M,0.7,0000*76
#3,$GNGGA,120225.80,3133.2058048,S,14833.3979583,E,4,12,0.77,264.416,M,24.110,M,0.8,0000*72
#4,$GNGGA,120225.80,3133.2034023,S,14833.4016497,E,4,12,0.77,264.421,M,24.111,M,0.8,0000*73
#2,$GNGGA,120225.80,3133.2038655,S,14833.4001785,E,4,12,0.77,264.485,M,24.111,M,0.8,0000*70
#1,$GNGGA,120225.80,3133.2046993,S,14833.3988765,E,4,12,0.77,264.492,M,24.111,M,0.8,0000*7B
#4,$GNGGA,120225.90,3133.2032756,S,14833.4015349,E,4,12,0.77,264.432,M,24.111,M,0.9,0000*75
#2,$GNGGA,120225.90,3133.2037362,S,14833.4000620,E,4,12,0.77,264.490,M,24.111,M,0.9,0000*75
#3,$GNGGA,120225.90,3133.2056773,S,14833.3978435,E,4,12,0.77,264.409,M,24.110,M,0.9,0000*70
#1,$GNGGA,120225.90,3133.2045722,S,14833.3987611,E,4,12,0.77,264.485,M,24.111,M,0.9,0000*77
#2,$GNGGA,120226.00,3133.2036097,S,14833.3999476,E,4,12,0.77,264.488,M,24.111,M,1.0,0000*79
#3,$GNGGA,120226.00,3133.2055549,S,14833.3977321,E,4,12,0.77,264.400,M,24.111,M,1.0,0000*7F
#4,$GNGGA,120226.00,3133.2031474,S,14833.4014218,E,4,12,0.77,264.433,M,24.111,M,1.0,0000*72
#1,$GNGGA,120226.00,3133.2044480,S,14833.3986498,E,4,12,0.77,264.477,M,24.111,M,1.0,0000*70
#3,$GNGGA,120226.10,3133.2054281,S,14833.3976256,E,4,12,0.77,264.401,M,24.111,M,1.1,0000*7C
#4,$GNGGA,120226.10,3133.2030177,S,14833.4013072,E,4,12,0.77,264.429,M,24.111,M,1.1,0000*77
#2,$GNGGA,120226.10,3133.2034848,S,14833.3998388,E,4,12,0.77,264.479,M,24.111,M,1.1,0000*78
#1,$GNGGA,120226.10,3133.2043215,S,14833.3985388,E,4,12,0.77,264.473,M,24.111,M,1.1,0000*7C
#4,$GNGGA,120226.20,3133.2028910,S,14833.4011972,E,4,12,0.77,264.427,M,24.111,M,1.2,0000*72
#2,$GNGGA,120226.20,3133.2033592,S,14833.3997273,E,4,12,0.77,264.481,M,24.111,M,1.2,0000*78
#3,$GNGGA,120226.20,3133.2053014,S,14833.3975132,E,4,12,0.77,264.396,M,24.111,M,1.2,0000*7E
#1,$GNGGA,120226.20,3133.2041932,S,14833.3984283,E,4,12,0.77,264.470,M,24.111,M,1.2,0000*78
#2,$GNGGA,120226.30,3133.2032332,S,14833.3996164,E,4,12,0.77,264.481,M,24.111,M,0.3,0000*70
#3,$GNGGA,120226.30,3133.2051759,S,14833.3974044,E,4,12,0.77,264.401,M,24.111,M,0.3,0000*7B
#4,$GNGGA,120226.30,3133.2027634,S,14833.4010865,E,4,12,0.77,264.425,M,24.111,M,0.3,0000*71
#1,$GNGGA,120226.30,3133.2040685,S,14833.3983164,E,4,12,0.77,264.461,M,24.111,M,0.3,0000*76
#2,$GNGGA,120226.40,3133.2031067,S,14833.3995048,E,4,12,0.77,264.478,M,24.111,M,0.4,0000*7A
#3,$GNGGA,120226.40,3133.2050490,S,14833.3972926,E,4,12,0.77,264.402,M,24.111,M,0.4,0000*74
#4,$GNGGA,120226.40,3133.2026366,S,14833.4009762,E,4,12,0.77,264.428,M,24.111,M,0.4,0000*7F
#1,$GNGGA,120226.40,3133.2039425,S,14833.3982040,E,4,12,0.77,264.466,M,24.111,M,0.4,0000*71
#4,$GNGGA,120226.50,3133.2025108,S,14833.4008633,E,4,12,0.77,264.424,M,24.111,M,0.5,0000*7E
#2,$GNGGA,120226.50,3133.2029802,S,14833.3993932,E,4,12,0.77,264.473,M,24.111,M,0.5,0000*71
#3,$GNGGA,120226.50,3133.2049235,S,14833.3971789,E,4,12,0.77,264.392,M,24.110,M,0.5,0000*72
#1,$GNGGA,120226.50,3133.2038156,S,14833.3980932,E,4,12,0.77,264.464,M,24.111,M,0.5,0000*7D
#2,$GNGGA,120226.60,3133.2028543,S,14833.3992838,E,4,12,0.77,264.468,M,24.111,M,0.6,0000*78
#3,$GNGGA,120226.60,3133.2047964,S,14833.3970702,E,4,12,0.77,264.399,M,24.110,M,0.6,0000*7A
#4,$GNGGA,120226.60,3133.2023849,S,14833.4007548,E,4,12,0.77,264.417,M,24.111,M,0.6,0000*74
#1,$GNGGA,120226.60,3133.2036905,S,14833.3979844,E,4,12,0.77,264.459,M,24.111,M,0.6,0000*75
#2,$GNGGA,120226.70,3133.2027271,S,14833.3991713,E,4,12,0.77,264.471,M,24.111,M,0.7,0000*7C
#3,$GNGGA,120226.70,3133.2046658,S,14833.3969564,E,4,12,0.77,264.401,M,24.110,M,0.7,0000*77
#4,$GNGGA,120226.70,3133.2022583,S,14833.4006435,E,4,12,0.77,264.421,M,24.111,M,0.7,0000*71
#1,$GNGGA,120226.70,3133.2035601,S,14833.3978711,E,4,12,0.77,264.453,M,24.111,M,0.7,0000*79
#4,$GNGGA,120226.80,3133.2021309,S,14833.4005305,E,4,12,0.77,264.421,M,24.111,M,0.8,0000*71
#2,$GNGGA,120226.80,3133.2026006,S,14833.3990595,E,4,12,0.77,264.477,M,24.111,M,0.8,0000*74
#3,$GNGGA,120226.80,3133.2045418,S,14833.3968468,E,4,12,0.77,264.400,M,24.110,M,0.8,0000*7F
#1,$GNGGA,120226.80,3133.2034349,S,14833.3977591,E,4,12,0.77,264.458,M,24.111,M,0.8,0000*7F
#3,$GNGGA,120226.90,3133.2044165,S,14833.3967380,E,4,12,0.77,264.407,M,24.110,M,0.9,0000*78
#4,$GNGGA,120226.90,3133.2020053,S,14833.4004180,E,4,12,0.77,264.424,M,24.111,M,0.9,0000*77
#2,$GNGGA,120226.90,3133.2024722,S,14833.3989476,E,4,12,0.77,264.479,M,24.111,M,0.9,0000*7D
#1,$GNGGA,120226.90,3133.2033096,S,14833.3976497,E,4,12,0.77,264.461,M,24.111,M,0.9,0000*75
#3,$GNGGA,120227.00,3133.2042894,S,14833.3966210,E,4,12,0.77,264.397,M,24.111,M,1.0,0000*7F
#4,$GNGGA,120227.00,3133.2018823,S,14833.4003101,E,4,12,0.77,264.423,M,24.111,M,1.0,0000*7A
#2,$GNGGA,120227.00,3133.2023459,S,14833.3988360,E,4,12,0.77,264.478,M,24.111,M,1.0,0000*75
#1,$GNGGA,120227.00,3133.2031823,S,14833.3975356,E,4,12,0.77,264.454,M,24.111,M,1.0,0000*7E
#3,$GNGGA,120227.10,3133.2041670,S,14833.3965127,E,4,12,0.77,264.400,M,24.111,M,1.1,0000*75
#4,$GNGGA,120227.10,3133.2017554,S,14833.4001938,E,4,12,0.77,264.427,M,24.111,M,1.1,0000*7C
#2,$GNGGA,120227.10,3133.2022213,S,14833.3987237,E,4,12,0.77,264.473,M,24.111,M,1.1,0000*7B
#1,$GNGGA,120227.10,3133.2030586,S,14833.3974253,E,4,12,0.77,264.453,M,24.111,M,1.1,0000*7F
#2,$GNGGA,120227.20,3133.2020967,S,14833.3986141,E,4,12,0.77,264.472,M,24.111,M,1.2,0000*73
#3,$GNGGA,120227.20,3133.2040404,S,14833.3963992,E,4,12,0.77,264.392,M,24.111,M,1.2,0000*79
#4,$GNGGA,120227.20,3133.2016285,S,14833.4000820,E,4,12,0.77,264.426,M,24.111,M,1.2,0000*7E
#1,$GNGGA,120227.20,3133.2029316,S,14833.3973149,E,4,12,0.77,264.462,M,24.111,M,1.2,0000*75
#3,$GNGGA,120227.30,3133.2039147,S,14833.3962859,E,4,12,0.77,264.376,M,24.111,M,0.3,0000*79
#4,$GNGGA,120227.30,3133.2015026,S,14833.3999709,E,4,12,0.77,264.422,M,24.111,M,0.3,0000*79
#2,$GNGGA,120227.30,3133.2019693,S,14833.3985029,E,4,12,0.77,264.461,M,24.111,M,0.3,0000*72
#1,$GNGGA,120227.30,3133.2028046,S,14833.3972027,E,4,12,0.77,264.454,M,24.111,M,0.3,0000*7E
#4,$GNGGA,120227.40,3133.2013758,S,14833.3998637,E,4,12,0.77,264.427,M,24.111,M,0.4,0000*79
#2,$GNGGA,120227.40,3133.2018423,S,14833.3983915,E,4,12,0.77,264.459,M,24.111,M,0.4,0000*71
#3,$GNGGA,120227.40,3133.2037853,S,14833.3961774,E,4,12,0.77,264.382,M,24.111,M,0.4,0000*73
#1,$GNGGA,120227.40,3133.2026773,S,14833.3970922,E,4,12,0.77,264.453,M,24.111,M,0.4,0000*78
#2,$GNGGA,120227.50,3133.2017144,S,14833.3982808,E,4,12,0.77,264.464,M,24.111,M,0.5,0000*78
#3,$GNGGA,120227.50,3133.2036571,S,14833.3960646,E,4,12,0.77,264.380,M,24.111,M,0.5,0000*7C
#4,$GNGGA,120227.50,3133.2012495,S,14833.3997520,E,4,12,0.77,264.422,M,24.111,M,0.5,0000*75
#1,$GNGGA,120227.50,3133.2025490,S,14833.3969804,E,4,12,0.77,264.454,M,24.111,M,0.5,0000*7F
#3,$GNGGA,120227.60,3133.2035316,S,14833.3959546,E,4,12,0.77,264.379,M,24.111,M,0.6,0000*77
#4,$GNGGA,120227.60,3133.2011234,S,14833.3996411,E,4,12,0.77,264.420,M,24.111,M,0.6,0000*7B
#2,$GNGGA,120227.60,3133.2015878,S,14833.3981700,E,4,12,0.77,264.460,M,24.111,M,0.6,0000*7C
#1,$GNGGA,120227.60,3133.2024227,S,14833.3968711,E,4,12,0.77,264.451,M,24.111,M,0.6,0000*7B
#4,$GNGGA,120227.70,3133.2009970,S,14833.3995318,E,4,12,0.77,264.421,M,24.111,M,0.7,0000*75
#2,$GNGGA,120227.70,3133.2014606,S,14833.3980604,E,4,12,0.77,264.457,M,24.111,M,0.7,0000*7A
#3,$GNGGA,120227.70,3133.2034025,S,14833.3958455,E,4,12,0.77,264.383,M,24.111,M,0.7,0000*72
#1,$GNGGA,120227.70,3133.2022951,S,14833.3967606,E,4,12,0.77,264.445,M,24.111,M,0.7,0000*7A
#2,$GNGGA,120227.80,3133.2013339,S,14833.3979509,E,4,12,0.77,264.459,M,24.111,M,0.8,0000*72
#3,$GNGGA,120227.80,3133.2032756,S,14833.3957346,E,4,12,0.77,264.381,M,24.111,M,0.8,0000*7F
#4,$GNGGA,120227.80,3133.2008707,S,14833.3994215,E,4,12,0.77,264.415,M,24.111,M,0.8,0000*70
#1,$GNGGA,120227.80,3133.2021685,S,14833.3966499,E,4,12,0.77,264.446,M,24.111,M,0.8,0000*79
#3,$GNGGA,120227.90,3133.2031485,S,14833.3956224,E,4,12,0.77,264.378,M,24.111,M,0.9,0000*73
#4,$GNGGA,120227.90,3133.2007453,S,14833.3993146,E,4,12,0.77,264.419,M,24.111,M,0.9,0000*73
#2,$GNGGA,120227.90,3133.2012073,S,14833.3978405,E,4,12,0.77,264.466,M,24.111,M,0.9,0000*7E
#1,$GNGGA,120227.90,3133.2020413,S,14833.3965415,E,4,12,0.77,264.449,M,24.111,M,0.9,0000*7D
#4,$GNGGA,120228.00,3133.2006176,S,14833.3992050,E,4,12,0.77,264.419,M,24.111,M,1.0,0000*79
#2,$GNGGA,120228.00,3133.2010790,S,14833.3977310,E,4,12,0.77,264.470,M,24.111,M,1.0,0000*73
#3,$GNGGA,120228.00,3133.2030179,S,14833.3955141,E,4,12,0.77,264.391,M,24.111,M,1.0,0000*7E
#1,$GNGGA,120228.00,3133.2019141,S,14833.3964327,E,4,12,0.77,264.459,M,24.111,M,1.0,0000*7D
#3,$GNGGA,120228.10,3133.2028903,S,14833.3954003,E,4,12,0.77,264.382,M,24.111,M,1.1,0000*76
#4,$GNGGA,120228.10,3133.2004914,S,14833.3990966,E,4,12,0.77,264.415,M,24.111,M,1.1,0000*75
#2,$GNGGA,120228.10,3133.2009537,S,14833.3976243,E,4,12,0.77,264.469,M,24.111,M,1.1,0000*7A
#1,$GNGGA,120228.10,3133.2017854,S,14833.3963203,E,4,12,0.77,264.456,M,24.111,M,1.1,0000*71
#3,$GNGGA,120228.20,3133.2027635,S,14833.3952906,E,4,12,0.77,264.380,M,24.111,M,1.2,0000*7B
#4,$GNGGA,120228.20,3133.2003650,S,14833.3989842,E,4,12,0.77,264.426,M,24.111,M,1.2,0000*72
#2,$GNGGA,120228.20,3133.2008284,S,14833.3975145,E,4,12,0.77,264.470,M,24.111,M,1.2,0000*7A
#1,$GNGGA,120228.20,3133.2016585,S,14833.3962100,E,4,12,0.77,264.455,M,24.111,M,1.2,0000*73
#4,$GNGGA,120228.30,3133.2002337,S,14833.3988669,E,4,12,0.77,264.427,M,24.111,M,1.3,0000*70
#2,$GNGGA,120228.30,3133.2007005,S,14833.3973980,E,4,12,0.77,264.468,M,24.111,M,1.3,0000*70
#3,$GNGGA,120228.30,3133.2026394,S,14833.3951802,E,4,12,0.77,264.377,M,24.111,M,1.3,0000*7A
#1,$GNGGA,120228.30,3133.2015338,S,14833.3960968,E,4,12,0.77,264.452,M,24.111,M,1.3,0000*73
#3,$GNGGA,120228.40,3133.2025168,S,14833.3950717,E,4,12,0.77,264.382,M,24.111,M,0.4,0000*79
#4,$GNGGA,120228.40,3133.2001097,S,14833.3987541,E,4,12,0.77,264.431,M,24.111,M,0.4,0000*7A
#2,$GNGGA,120228.40,3133.2005733,S,14833.3972824,E,4,12,0.77,264.471,M,24.111,M,0.4,0000*77
#1,$GNGGA,120228.40,3133.2014101,S,14833.3959841,E,4,12,0.77,264.444,M,24.111,M,0.4,0000*7C
#4,$GNGGA,120228.50,3133.1999790,S,14833.3986399,E,4,12,0.77,264.428,M,24.111,M,0.5,0000*7B
#2,$GNGGA,120228.50,3133.2004471,S,14833.3971689,E,4,12,0.77,264.471,M,24.111,M,0.5,0000*79
#3,$GNGGA,120228.50,3133.2023937,S,14833.3949629,E,4,12,0.77,264.381,M,24.111,M,0.5,0000*7A
#1,$GNGGA,120228.50,3133.2012850,S,14833.3958723,E,4,12,0.77,264.443,M,24.111,M,0.5,0000*7A
#3,$GNGGA,120228.60,3133.2022663,S,14833.3948508,E,4,12,0.77,264.381,M,24.111,M,0.6,0000*74
#4,$GNGGA,120228.60,3133.1998553,S,14833.3985303,E,4,12,0.77,264.430,M,24.111,M,0.6,0000*7E
#2,$GNGGA,120228.60,3133.2003215,S,14833.3970585,E,4,12,0.77,264.473,M,24.111,M,0.6,0000*76
#1,$GNGGA,120228.60,3133.2011582,S,14833.3957618,E,4,12,0.77,264.443,M,24.111,M,0.6,0000*7D
#2,$GNGGA,120228.70,3133.2001941,S,14833.3969474,E,4,12,0.77,264.473,M,24.111,M,0.7,0000*79
#3,$GNGGA,120228.70,3133.2021391,S,14833.3947393,E,4,12,0.77,264.378,M,24.111,M,0.7,0000*72
#4,$GNGGA,120228.70,3133.1997282,S,14833.3984208,E,4,12,0.77,264.425,M,24.111,M,0.7,0000*75
#1,$GNGGA,120228.70,3133.2010304,S,14833.3956514,E,4,12,0.77,264.441,M,24.111,M,0.7,0000*78
#3,$GNGGA,120228.80,3133.2020117,S,14833.3946287,E,4,12,0.77,264.380,M,24.111,M,0.8,0000*7D
#4,$GNGGA,120228.80,3133.1996035,S,14833.3983121,E,4,12,0.77,264.423,M,24.111,M,0.8,0000*73
#2,$GNGGA,120228.80,3133.2000706,S,14833.3968416,E,4,12,0.77,264.467,M,24.111,M,0.8,0000*75
#1,$GNGGA,120228.80,3133.2009049,S,14833.3955404,E,4,12,0.77,264.444,M,24.111,M,0.8,0000*7C
#4,$GNGGA,120228.90,3133.1994778,S,14833.3982024,E,4,12,0.77,264.421,M,24.111,M,0.9,0000*78
#2,$GNGGA,120228.90,3133.1999447,S,14833.3967297,E,4,12,0.77,264.461,M,24.111,M,0.9,0000*7F
#3,$GNGGA,120228.90,3133.2018840,S,14833.3945160,E,4,12,0.77,264.372,M,24.111,M,0.9,0000*79
#1,$GNGGA,120228.90,3133.2007761,S,14833.3954272,E,4,12,0.77,264.437,M,24.111,M,0.9,0000*7D
#3,$GNGGA,120229.00,3133.2017609,S,14833.3944072,E,4,12,0.77,264.386,M,24.111,M,1.0,0000*7D
#4,$GNGGA,120229.00,3133.1993501,S,14833.3980896,E,4,12,0.77,264.422,M,24.111,M,1.0,0000*73
#2,$GNGGA,120229.00,3133.1998177,S,14833.3966167,E,4,12,0.77,264.471,M,24.111,M,1.0,0000*74
#1,$GNGGA,120229.00,3133.2006540,S,14833.3953188,E,4,12,0.77,264.438,M,24.111,M,1.0,0000*73
#3,$GNGGA,120229.10,3133.2016325,S,14833.3942959,E,4,12,0.77,264.388,M,24.111,M,1.1,0000*7F
#4,$GNGGA,120229.10,3133.1992238,S,14833.3979812,E,4,12,0.77,264.419,M,24.111,M,1.1,0000*7D
#2,$GNGGA,120229.10,3133.1996904,S,14833.3965067,E,4,12,0.77,264.469,M,24.111,M,1.1,0000*7D
#1,$GNGGA,120229.10,3133.2005267,S,14833.3952066,E,4,12,0.77,264.436,M,24.111,M,1.1,0000*7C
#2,$GNGGA,120229.20,3133.1995647,S,14833.3963968,E,4,12,0.77,264.465,M,24.111,M,1.2,0000*7A
#3,$GNGGA,120229.20,3133.2015049,S,14833.3941843,E,4,12,0.77,264.380,M,24.111,M,1.2,0000*74
#4,$GNGGA,120229.20,3133.1990998,S,14833.3978733,E,4,12,0.77,264.410,M,24.111,M,1.2,0000*7A
#1,$GNGGA,120229.20,3133.2003990,S,14833.3950965,E,4,12,0.77,264.430,M,24.111,M,1.2,0000*77
#3,$GNGGA,120229.30,3133.2013790,S,14833.3940702,E,4,12,0.77,264.391,M,24.111,M,0.3,0000*7B
#4,$GNGGA,120229.30,3133.1989744,S,14833.3977612,E,4,12,0.77,264.418,M,24.111,M,0.3,0000*79
#2,$GNGGA,120229.30,3133.1994400,S,14833.3962862,E,4,12,0.77,264.473,M,24.111,M,0.3,0000*76
#1,$GNGGA,120229.30,3133.2002728,S,14833.3949888,E,4,12,0.77,264.444,M,24.111,M,0.3,0000*73
#3,$GNGGA,120229.40,3133.2012526,S,14833.3939581,E,4,12,0.77,264.399,M,24.111,M,0.4,0000*7A
#4,$GNGGA,120229.40,3133.1988479,S,14833.3976481,E,4,12,0.77,264.418,M,24.111,M,0.4,0000*7C
#2,$GNGGA,120229.40,3133.1993134,S,14833.3961761,E,4,12,0.77,264.470,M,24.111,M,0.4,0000*7F
#1,$GNGGA,120229.40,3133.2001484,S,14833.3948755,E,4,12,0.77,264.450,M,24.111,M,0.4,0000*7E
#4,$GNGGA,120229.50,3133.1987209,S,14833.3975352,E,4,12,0.77,264.417,M,24.111,M,0.5,0000*77
#2,$GNGGA,120229.50,3133.1991866,S,14833.3960618,E,4,12,0.77,264.467,M,24.111,M,0.5,0000*7B
#3,$GNGGA,120229.50,3133.2011273,S,14833.3938458,E,4,12,0.77,264.394,M,24.111,M,0.5,0000*77
#1,$GNGGA,120229.50,3133.2000200,S,14833.3947633,E,4,12,0.77,264.450,M,24.111,M,0.5,0000*7B
#2,$GNGGA,120229.60,3133.1990604,S,14833.3959493,E,4,12,0.77,264.476,M,24.111,M,0.6,0000*7B
#3,$GNGGA,120229.60,3133.2010016,S,14833.3937341,E,4,12,0.77,264.399,M,24.111,M,0.6,0000*7A
#4,$GNGGA,120229.60,3133.1985947,S,14833.3974232,E,4,12,0.77,264.414,M,24.111,M,0.6,0000*71
#1,$GNGGA,120229.60,3133.1998959,S,14833.3946515,E,4,12,0.77,264.452,M,24.111,M,0.6,0000*73
#3,$GNGGA,120229.70,3133.2008718,S,14833.3936214,E,4,12,0.77,264.398,M,24.111,M,0.7,0000*7B
#4,$GNGGA,120229.70,3133.1984705,S,14833.3973160,E,4,12,0.77,264.419,M,24.111,M,0.7,0000*76
#2,$GNGGA,120229.70,3133.1989336,S,14833.3958403,E,4,12,0.77,264.475,M,24.111,M,0.7,0000*7C
#1,$GNGGA,120229.70,3133.1997675,S,14833.3945403,E,4,12,0.77,264.451,M,24.111,M,0.7,0000*7B
#4,$GNGGA,120229.80,3133.1983437,S,14833.3972075,E,4,12,0.77,264.426,M,24.111,M,0.8,0000*7B
#2,$GNGGA,120229.80,3133.1988064,S,14833.3957304,E,4,12,0.77,264.472,M,24.111,M,0.8,0000*71
#3,$GNGGA,120229.80,3133.2007421,S,14833.3935106,E,4,12,0.77,264.399,M,24.111,M,0.8,0000*7F
#1,$GNGGA,120229.80,3133.1996393,S,14833.3944318,E,4,12,0.77,264.446,M,24.111,M,0.8,0000*7D
#2,$GNGGA,120229.90,3133.1986781,S,14833.3956215,E,4,12,0.77,264.476,M,24.111,M,0.9,0000*77
#3,$GNGGA,120229.90,3133.2006161,S,14833.3934018,E,4,12,0.77,264.396,M,24.111,M,0.9,0000*7F
#4,$GNGGA,120229.90,3133.1982146,S,14833.3970974,E,4,12,0.77,264.422,M,24.111,M,0.9,0000*77
#1,$GNGGA,120229.90,3133.1995109,S,14833.3943208,E,4,12,0.77,264.448,M,24.111,M,0.9,0000*76
#4,$GNGGA,120230.00,3133.1980888,S,14833.3969867,E,4,12,0.77,264.425,M,24.111,M,1.0,0000*7B
#2,$GNGGA,120230.00,3133.1985506,S,14833.3955106,E,4,12,0.77,264.477,M,24.111,M,1.0,0000*73
#3,$GNGGA,120230.00,3133.2004852,S,14833.3932893,E,4,12,0.77,264.402,M,24.111,M,1.0,0000*7A
#1,$GNGGA,120230.00,3133.1993826,S,14833.3942100,E,4,12,0.77,264.454,M,24.111,M,1.0,0000*7A
#2,$GNGGA,120230.10,3133.1984249,S,14833.3953987,E,4,12,0.77,264.476,M,24.111,M,1.1,0000*78
#3,$GNGGA,120230.10,3133.2003603,S,14833.3931781,E,4,12,0.77,264.392,M,24.111,M,1.1,0000*76
#4,$GNGGA,120230.10,3133.1979629,S,14833.3968742,E,4,12,0.77,264.429,M,24.111,M,1.1,0000*7D
#1,$GNGGA,120230.10,3133.1992569,S,14833.3940971,E,4,12,0.77,264.450,M,24.111,M,1.1,0000*75
#2,$GNGGA,120230.20,3133.1982983,S,14833.3952842,E,4,12,0.77,264.473,M,24.111,M,1.2,0000*7F
#3,$GNGGA,120230.20,3133.2002373,S,14833.3930699,E,4,12,0.77,264.397,M,24.111,M,1.2,0000*79
#4,$GNGGA,120230.20,3133.1978339,S,14833.3967590,E,4,12,0.77,264.433,M,24.111,M,1.2,0000*71
#1,$GNGGA,120230.20,3133.1991319,S,14833.3939871,E,4,12,0.77,264.445,M,24.111,M,1.2,0000*7C
#3,$GNGGA,120230.30,3133.2001118,S,14833.3929583,E,4,12,0.77,264.391,M,24.111,M,0.3,0000*72
#4,$GNGGA,120230.30,3133.1977052,S,14833.3966468,E,4,12,0.77,264.442,M,24.111,M,0.3,0000*70
#2,$GNGGA,120230.30,3133.1981702,S,14833.3951711,E,4,12,0.77,264.478,M,24.111,M,0.3,0000*7B
#1,$GNGGA,120230.30,3133.1990066,S,14833.3938740,E,4,12,0.77,264.441,M,24.111,M,0.3,0000*7F
#2,$GNGGA,120230.40,3133.1980462,S,14833.3950646,E,4,12,0.77,264.470,M,24.111,M,0.4,0000*75
#3,$GNGGA,120230.40,3133.1999861,S,14833.3928514,E,4,12,0.77,264.396,M,24.111,M,0.4,0000*76
#4,$GNGGA,120230.40,3133.1975774,S,14833.3965360,E,4,12,0.77,264.433,M,24.111,M,0.4,0000*7B
#1,$GNGGA,120230.40,3133.1988799,S,14833.3937645,E,4,12,0.77,264.441,M,24.111,M,0.4,0000*7A
#2,$GNGGA,120230.50,3133.1979203,S,14833.3949550,E,4,12,0.77,264.464,M,24.111,M,0.5,0000*7B
#3,$GNGGA,120230.50,3133.1998562,S,14833.3927405,E,4,12,0.77,264.393,M,24.111,M,0.5,0000*72
#4,$GNGGA,120230.50,3133.1974523,S,14833.3964277,E,4,12,0.77,264.423,M,24.111,M,0.5,0000*7D
#1,$GNGGA,120230.50,3133.1987522,S,14833.3936534,E,4,12,0.77,264.432,M,24.111,M,0.5,0000*77
#2,$GNGGA,120230.60,3133.1977958,S,14833.3948452,E,4,12,0.77,264.470,M,24.111,M,0.6,0000*77
#3,$GNGGA,120230.60,3133.1997301,S,14833.3926285,E,4,12,0.77,264.392,M,24.111,M,0.6,0000*70
#4,$GNGGA,120230.60,3133.1973307,S,14833.3963186,E,4,12,0.77,264.443,M,24.111,M,0.6,0000*76
#1,$GNGGA,120230.60,3133.1986268,S,14833.3935421,E,4,12,0.77,264.432,M,24.111,M,0.6,0000*79
#3,$GNGGA,120230.70,3133.1996040,S,14833.3925221,E,4,12,0.77,264.397,M,24.111,M,0.7,0000*7F
#4,$GNGGA,120230.70,3133.1972001,S,14833.3962050,E,4,12,0.77,264.442,M,24.111,M,0.7,0000*78
#2,$GNGGA,120230.70,3133.1976679,S,14833.3947344,E,4,12,0.77,264.467,M,24.111,M,0.7,0000*73
#1,$GNGGA,120230.70,3133.1985002,S,14833.3934333,E,4,12,0.77,264.433,M,24.111,M,0.7,0000*70
#2,$GNGGA,120230.80,3133.1975396,S,14833.3946218,E,4,12,0.77,264.470,M,24.111,M,0.8,0000*7B
#3,$GNGGA,120230.80,3133.1994774,S,14833.3924082,E,4,12,0.77,264.392,M,24.111,M,0.8,0000*72
#4,$GNGGA,120230.80,3133.1970743,S,14833.3960973,E,4,12,0.77,264.435,M,24.111,M,0.8,0000*71
#1,$GNGGA,120230.80,3133.1983729,S,14833.3933196,E,4,12,0.77,264.425,M,24.111,M,0.8,0000*75
#3,$GNGGA,120230.90,3133.1993508,S,14833.3922971,E,4,12,0.77,264.391,M,24.111,M,0.9,0000*7C
